stop_id,stop_name,stop_lat,stop_lon,stop_desc
708888,"ринок ""Привоз""",46.467885440973795,30.735937356948856,11
708906,8-а станція Люстдорфської дороги,46.393764,30.73483,26
708915,13-а станція Люстдорфської дороги,46.37119171343057,30.70214688777924,3
708886,вул. Велика Арнаутська,46.47355297240483,30.73105573654175,10-
708903,6-а станція Люстдорфської дороги,46.405840254168766,30.73031544685364,26
708891,"Завод ""Стальканат""",46.460686,30.730871,26
708894,вул. Бреуса,46.44314681617764,30.726694464683536,26
687055,вул. Велика Арнаутська,46.472610887804,30.740743875503544,
708907,вул. Офіцерська,46.390994101285095,30.733727216720585,26
708920,пров. Ліверпуський,46.353363053226765,30.700982809066776,
687056,вул. Акордна,46.460698,30.697969,
687057,вул. Акордна,46.46085,30.696678,
687058,вул. Балківська,46.460692,30.705753,
708905,7-а станція Люстдорфської дороги,46.39899295416615,30.733163952827457,26
708921,селище Люстдорф,46.35031575451349,30.701240301132206,3
687059,вул. Балківська -,46.460889,30.705193,
687060,вул. Іоганна Гена,46.467889,30.678667,
687061,вул. Іоганна Гена,46.46846552182185,30.67717015743256,
687062,вул. Запорізька,46.465368,30.718192,
687063,вул. Запорізька,46.466191,30.719133,
687064,вул. Канатна,46.470555,30.747205,
687065,вул. Канатна,46.472218,30.746777,
708911,Дитяча лікарня,46.38320870804117,30.71633577346802,26
708912,11-а станція Люстдорфської дороги,46.38249079742879,30.71439921855927,26
687066,вул. Європейська,46.472913834434905,30.736645460128788,
708917,14-а станція Люстдорфської дороги,46.36488793309248,30.70214152336121,3
708758,Таврія В,46.597451690791615,30.804178118705753,7
708890,"КП ""Одесміськелектротранс""",46.46474846355313,30.73460698127747,
708897,3-я станція Люстдорфської дороги,46.42509390917858,30.72386741638184,26
687067,вул. Леонтовича,46.470234,30.75165,
708883,вул. Грецька,46.482670030850194,30.73232710361481,7
687068,вул. Леонтовича,46.471831,30.752569,
687069,вул. М'ясоїдівська,46.468501,30.723332,
708879,Чорноморського козацтва,46.49820392899639,30.723325610160828,7
708904,Одеський ліцей №78,46.402573929218576,30.73156535625458,
687070,вул. М'ясоїдівська,46.46964,30.724799,
687071,вул. Мельницька,46.460574,30.692668,
687072,вул. Мечникова,46.470551,30.726662,
708885,вул. Успенська,46.476419764826126,30.731506347656254,10-
687073,вул. Новикова,46.46709105271302,30.682057142257694,
708887,вул. Пантелеймонівська,46.47048282491877,30.73059976100922,10-
708895,1-а станція Люстдорфської дороги,46.438592,30.725886,26
708914,Червоний Хутiр,46.3746005598829,30.70364356040955,3
708863,вул. Глаубермана,46.562864,30.774474,
708919,15-а станція Люстдорфської дороги,46.35833,30.701674,3
687074,вул. Новикова,46.467201898282596,30.682271718978885,
687075,вул. Преображенська,46.4718,30.730467,
687076,вул. Преображенська,46.47335347349748,30.730685591697696,
687077,вул. Мечникова,46.47247419182088,30.725744962692264,
687078,вул. Рішельєвська,46.471107,30.739599,
687079,вул. Степова,46.462762,30.713968,
687080,вул. Степова,46.461778,30.713377,
687081,"Завод ""Пресмаш""",46.46941876227313,30.67268013954163,
687082,"Завод ""Пресмаш""",46.469319,30.673786,
687083,Застава I,46.470055,30.669037,
708884,пл. Тираспольська,46.47868427629636,30.73181748390198,10-
708916,Арсенал (на вимогу),46.36895974756482,30.702179074287418,7
708889,пл. Старосінна,46.466847191574054,30.738241648496377,26
708892,вул. Транспортна,46.45345902210269,30.728545188903812,26
687084,Застава I,46.47013183433134,30.66989600658417,
708893,2-е кладовище,46.451059,30.728105,26
687085,Застава ІІ,46.465749803432104,30.687958002090458,
708896,пл. Трибуни Героїв,46.43037767460163,30.728448629379276,26
708898,"ж/к ""Альтаїр""",46.421553,30.725046,26
708900,5-а станція Люстдорфської дороги,46.414391698423344,30.727193355560306,26
708910,вул. Архітекторська,46.38437806800176,30.72135150432587,26
708913,вул. Тепла,46.37950063519404,30.710273981094364,3
687086,Застава ІІ,46.46570176909836,30.687062144279484,
702186,вул. Канатна,46.475138,30.747029,
687087,Парк ім. Тараса Шевченка,46.47301727923973,30.75406908988953,
687088,станція Застава I,46.4691231856243,30.668796300888065,
687089,Фабрика технічних тканин,46.461811,30.69026,
687090,Фабрика технічних тканин,46.461416,30.690929,
709640,14-а станція Люстдорфської дороги,46.3648204,30.7021946,3-
709641,15-а станція Люстдорфської дороги,46.358165073402404,30.702018141746525,3-
709643,вул. Тепла,46.37957465108732,30.710477828979496,3-
709645,селище Люстдорф,46.34990104216177,30.701953768730164,26
709646,Червоний Хутiр,46.374431,30.703615,3-
709647,13-а станція Люстдорфської дороги,46.3709181,30.7022066,3-
702208,вул. Успенська,46.476053,30.732113,
702196,пров. Сєченова,46.49298952492902,30.722038149833683,
702187,вул. Італійська,46.475563,30.741032,
702189,вул. Успенська,46.476317,30.730762,
702352,пл. Незалежності,46.398935,30.722455,
702201,Академічний Український музично-драматичний театр,46.489913,30.72687,
702194,вул. Садова,46.487956,30.726687,
702355,пр. Князя Ярослава Мудрого,46.397457650112614,30.709195733070374,
702202,вул. Торгова,46.487434,30.726455,
702361,вул. Михайла Комарова,46.41982442383388,30.71582078933716,
702363,3-я станція Люстдорфської дороги,46.424820278266694,30.722451210021976,
702359,пр. Небесної Сотні,46.412641,30.71321,
702396,ж/м Південний,46.39273308208089,30.723931789398197,
702207,вул. Тираспольська,46.476598,30.727186,
702400,Магазин,46.402943,30.722517,
702389,вул. Левітана,46.405883,30.710087,
702428,вул. Єврейська,46.478601,30.740014,
702429,вул. Преображенська,46.477911,30.731224,
702433,вул. Торгова,46.48439,30.722744,
702437,вул. Пантелеймонівська,46.470226,30.738741,
702188,вул. Європейська,46.475855,30.73717,
702454,вул. Академіка Корольова,46.416573729420016,30.72013914585114,
702204,пл. Соборна,46.484522,30.730932,
702446,вул. Добровольців,46.43881806493091,30.75035691261292,
702488,10-й квартал,46.426920545212866,30.70937812328339,
702490,вул. Героїв Крут,46.432396,30.71747,
702472,вул. Старопортофранківська,46.47375247058086,30.725020766258243,
702482,"завод ""Нептун""",46.484546448119666,30.664531588554386,
702209,вул. Європейська,46.475574,30.738395,
702211,вул. Канатна,46.474884,30.748079,
702502,вул. Космонавтів,46.436657,30.723385,
702516,Морвокзал,46.489382,30.742542,
702206,пл. Менделе Мойхер-Сфоріма,46.4790684581251,30.723770856857303,
702501,Куликове поле,46.467139,30.746092,
702526,вул. Ніни Строкатої,46.480173,30.744486,
702356,ж/м Райдужний,46.401512,30.709671,
702511,«КДЦ №6»,46.44707603381121,30.74305593967438,
702354,вул. Сім’ї Глодан,46.398034781522846,30.714463591575626,
702523,Війсковий узвіз,46.49118726335,30.737755894660953,
702379,вул. Івана та Юрія Лип,46.438564,30.712448,
702391,пр. Князя Ярослава Мудрого,46.39726527161941,30.709045529365543,
702524,Морвокзал,46.488584,30.743071,
702395,"Ринок ""Південний""",46.395504,30.723911,
702528,2-а станція Великого Фонтану,46.453577286975325,30.743882060050968,
702411,5-а станція Великого Фонтану,46.437934,30.746774,
702540,вул. Рачкова,46.487557,30.699744,12
702416,вул. Довженка,46.454071,30.752865,
702375,вул. Ольги Благовидової,46.447821,30.691802,
702418,Політехнічний інститут,46.46095,30.750207,
702443,пров. Шампанський,46.45092735308209,30.754986405372623,9-
702458,Магазин,46.403198,30.722109,
702381,вул. Космонавтів,46.434525,30.721466,
702475,Автовокзал,46.476308938028595,30.707672238349918,
702489,вул. Євгена Танцюри,46.42967147668638,30.713428258895878,
702394,пл. Незалежності,46.398664,30.722535,
702185,ЦПКіВ ім. Тараса Шевченка,46.47463,30.75391,
702515,пл. Митна,46.485444,30.746791,
702517,Війсковий узвіз,46.491445788147146,30.73633968830109,
702193,пл. Соборна,46.485144,30.730991,
702397,"ТЦ ""Таіровський""",46.389805,30.723166,
702522,вул. Торгова,46.492860266353055,30.73308885097504,
702383,пл. Трибуни Героїв,46.42918711575825,30.727906823158268,
702402,Дитяча поліклініка,46.410931,30.720266,
702408,сквер Героїв Прикордонників,46.43708424999919,30.731441974639893,
702195,Національна наукова бібліотека,46.490604,30.726287,
702210,вул. Італійська,46.475293,30.742297,
702444,Палац спорту,46.445394230287164,30.758264064788822,
702387,Шкільний аеродром,46.411728,30.712458,
702399,пл. Незалежності,46.399979,30.723331,
702445,пл. 10 Квітня,46.44008974059751,30.755753517150882,
702406,пл. Трибуни Героїв,46.43066976425814,30.72858810424805,
702414,Палац спорту,46.44673228478528,30.7580441236496,
702447,сквер Героїв-льотчиків,46.437649871594374,30.74484765529633,
702432,вул. Новосельського,46.488467,30.720098,
702477,вул. Саймона Літмана,46.479766627773685,30.69089770317078,
702491,вул. Академіка Філатова,46.435215,30.721609,
702509,4-а станція Великого Фонтану,46.443421,30.743163,
702532,вул. Кіри Муратової,46.482151,30.728638,
801861,Таврія В,46.598207315109065,30.805846452713016,1
801862,Таврія В,46.59814465398097,30.80598056316376,1-
702560,пл. Тираспольська,46.4801692718048,30.730953812599186,15-
702213,ЦПКіВ ім. Тараса Шевченка,46.474488,30.753932,
702450,«Одеський ліцей №6»,46.437284,30.732631,
702460,Суперфосфатний завод,46.47358622215161,30.673066377639774,
801871,пл. Тираспольська,46.47964472578217,30.730980634689335,21-
702469,вул. Скісна,46.47474625615495,30.711920857429508,
801859,вул. Глаубермана,46.56258937209552,30.774469971656803,
801873,Підстанція,46.34654990280985,30.678999423980716,27-
702483,"завод ""Мікрон""",46.484908426681415,30.662739872932438,
801874,Любительський причал,46.342394945344225,30.673806667327884,27
801886,4-а станція Люстдорфської дороги,46.417775658353236,30.726206302642822,26-
801883,вул. Кіри Муратової,46.478743381369654,30.72227954864502,
801875,Любительський причал,46.342220889432596,30.6736296415329,27-
702487,вул. Інглезі,46.424657578154445,30.706062912940983,
801879,Рибний порт,46.33479522227372,30.666591525077823,27-
702191,пл. Менделе Мойхер-Сфоріма,46.479363980762926,30.72406053543091,
702527,1-а станція Великого Фонтану,46.460861,30.745152,
702544,Хлібозавод №3,46.491135,30.695315,12
702192,вул. Кіри Муратової,46.48259,30.728924,
702205,вул. Кіри Муратової,46.482214,30.727953,
702200,вул. Олексія Маркевича,46.490822,30.723115,
702367,СДЮШОР «Крижинка»,46.437314,30.715853,
702349,вул. Архітекторська,46.38599144758627,30.722719430923465,
702350,ж/м Південний,46.39263318468419,30.72412490844727,
702392,вул. Сім’ї Глодан,46.397949692019075,30.71564376354218,
702351,"Ринок ""Південний""",46.395348,30.72419,
702372,вул. Платанова,46.450116,30.686966,
702357,вул. Левітана,46.406452,30.710876,
702373,вул. Святослава Ріхтера,46.451202,30.68366,
702374,вул. Платанова,46.449851,30.686897,
702360,"ТРЦ ""Сіті Центр""",46.416303754046744,30.71438312530518,
702409,вул. Віталія Гуляєва,46.43657777339239,30.736924409866337,
702410,вул. Суднобудівна,46.4362117764181,30.74182748794556,
702423,вул. Велика Арнаутська,46.471698,30.741313,
702424,вул. Успенська,46.475952,30.741922,
702362,"Завод ""Промзв'язок""",46.422501,30.719376,
702377,пл. Бориса Дерев'янка,46.442101,30.703318,
702364,пл. Трибуни Героїв,46.430048609695795,30.72808921337128,
702451,1-а станція Люстдорфської дороги,46.43679958854409,30.726302862167362,
702378,вул. Іцкаха Рабіна,46.441335,30.706194,
702453,вул. Інглезі,46.417591,30.718023,
702380,СДЮШОР «Крижинка»,46.436947,30.716242,
702393,"Магазин ""Океан""",46.398337,30.719954,
702401,вул. Левітана,46.406844,30.7214,
702382,вул. Варненська,46.432396,30.724375,
702494,вул. Троїцька,46.476578,30.747842,
702384,3-я станція Люстдорфської дороги,46.42634002177239,30.724178552627567,
702386,"ТРЦ ""Сіті Центр""",46.41590063764535,30.71391105651856,
702403,Одеський ліцей №63,46.4131490112429,30.720289349555973,
702388,Авіазавод,46.409197,30.711535,
702420,вул. Михайла Омеляновича-Павленка,46.467056,30.749112,
702398,вул. Архітекторська,46.38605805397539,30.722483396530155,
702495,вул. Святослава Караванського,46.479778,30.74832,
702404,вул. Академіка Корольова,46.41677343637032,30.720064043998722,
702497,вул. Віталія Боровика,46.481619,30.748511,
702421,Куликове поле,46.467854,30.745441,
702405,Південно-Західний масив,46.434341,30.727358,
702436,вул. Успенська,46.474567,30.739408,
702525,пл. Митна,46.485513,30.746362,
702407,1-а станція Люстдорфської дороги,46.43750569409824,30.726909041404728,
702412,вул. Тіниста,46.43954632468552,30.75380623340607,
702368,вул. Івана та Юрія Лип,46.439114,30.711634,
702452,Південно-Західний масив,46.433978,30.727106,
702413,Парк Перемоги,46.44111741029474,30.757250189781193,
702415,пров. Шампанський,46.451522398278016,30.754664540290836,9
702385,"завод ""Промзв'язок""",46.421995,30.718308,
702417,пр. Лесі Українки,46.45758,30.750412,
702419,вул. Пироговська,46.463118937512256,30.750378370285038,
702459,пл. Незалежності,46.39979573450765,30.723175406455997,
702422,Залізничний вокзал,46.46879065997577,30.741435885429386,
702390,ж/м Райдужний,46.401111,30.70882,
702425,вул. Святослава Караванського,46.479843,30.742517,
702430,вул. Кіри Муратової,46.480992,30.727296,
702426,вул. Грецька,46.482022,30.740477,
702438,Залізничний вокзал,46.467193,30.741443,
702462,вул. Хімічна,46.48274390676969,30.673356056213382,
702427,вул. Рішельєвська,46.48061993406714,30.74034690856934,
702442,вул. Довженка,46.453571,30.752995,
702431,вул. Торгова,46.484073,30.72344,
702468,Автовокзал,46.475939513739995,30.707935094833378,
702434,вул. Кіри Муратової,46.480996,30.72706,
702521,пров. Газовий,46.495705,30.727555,
702538,вул. Балківська,46.48346,30.708813,15
702550,вул. Яши Гордієнка,46.49089549817439,30.702522397041324,12-
702551,вул. Вітрогонова,46.489806,30.698977,12-
702471,вул. Велика Арнаутська,46.471698,30.741313,
702484,"завод ""ББК""",46.48326103539736,30.66913962364197,
702493,вул. Велика Арнаутська,46.472588,30.747268,
702496,вул. Віталія Боровика,46.482087,30.747585,
702508,вул. Інглезі,46.42455404146655,30.70562839508057,
702435,вул. Преображенська,46.477803,30.731111,
702439,"Стадіон ""СКА""",46.464263,30.747677,
702514,вул. Ніни Строкатої,46.480976,30.744841,
702440,Політехнічний інститут,46.46046577262125,30.749922394752506,
702441,пр. Лесі Українки,46.456415,30.750975,
702530,4-а станція Великого Фонтану,46.44412637484434,30.74229955673218,
702448,вул. Суднобудівна,46.43642250224896,30.741006731987003,
702449,вул. Віталія Гуляєва,46.43694746481026,30.73586225509644,
702533,вул. Всеволода Змієнка,46.483942,30.725614,15
702455,Одеський ліцей №63,46.41232793453475,30.719999670982364,
702536,вул. Майстрова,46.481181,30.7167,15
702542,Дитяча лікарня,46.487124,30.696477,12
702456,Дитяча поліклініка,46.410491,30.720106,
702457,вул. Левітана,46.405884,30.721392,
702545,вул. Яши Гордієнка,46.493217,30.700569,12
702555,вул. Скісна,46.481042,30.711496,15-
702461,"завод ""Кисеньмаш""",46.479352898692994,30.67338287830353,
702463,вул. Грушевського,46.48830647533179,30.677100419998172,
702190,вул. Тираспольська,46.476952,30.727075,
702464,вул. Нафтовиків,46.48556219818422,30.681204199790958,
702197,вул. Новосельського,46.489536,30.719829,
702465,вул. Одеська,46.48175026725327,30.686488151550297,
702466,вул. Саймона Літмана,46.47965580779269,30.690758228302006,
702353,"Магазин ""Океан""",46.398708,30.720285,
702467,вул. Паркова,46.47687045814412,30.696187019348148,
702470,вул. М'ясоїдівська,46.47409974343904,30.719559788703922,
702358,Авіазавод,46.409523,30.712082,
703534,Хаджибейський лиман,46.541267,30.671557,20
702473,вул. М'ясоїдівська,46.47430662834378,30.718132853508,
702474,вул. Скісна,46.474927278339045,30.711019635200504,
702365,вул. Варненська,46.432606,30.724455,
702476,вул. Паркова,46.476984977982596,30.696288943290714,
702478,вул. Одеська,46.48265525565426,30.685511827468876,
702479,вул. Нафтовиків,46.486271365167724,30.680480003356937,
702480,вул. Хімічна,46.487294469994225,30.675968527793888,
702481,вул. Промислова,46.48250011585463,30.67238509654999,
702366,вул. Космонавтів,46.43532819783446,30.72038054466248,
703523,"завод ""Стальметиз""",46.501413,30.70642,20
702485,"завод ""Кисеньмаш""",46.48014710799065,30.673270225524906,
703537,Гастроном,46.531105,30.678766,20-
703561,сквер Жака-Луї Десме,46.510816,30.723984,
703567,Агаровий завод,46.534179,30.735297,1
703572,Лузанівка,46.553319709593964,30.762223005294803,1
703577,Торговельний центр,46.577313,30.782554,1
703583,Міський холодильник,46.604107,30.814211,1
702369,Будинок Меблів,46.44256,30.705234,
702371,вул. Ольги Благовидової,46.448223,30.691524,
702492,бул. Італійський,46.468308,30.746617,
702498,вул. Святослава Караванського,46.478771,30.748026,
702499,вул. Успенська,46.474491,30.747369,
703521,Хлібозавод №1,46.497472,30.715983,20
703559,вул. Миколи Плигуна,46.504602,30.724688,1
702500,вул. Велика Арнаутська,46.471297,30.746903,
702503,вул. Академіка Філатова,46.434651640531456,30.720471739768985,
703562,"завод ""Сільхозмаш""",46.51758,30.725954,1
702504,на вимогу,46.43327262067667,30.718481540679935,
703563,"завод ""Червоної Гвардії""",46.521484,30.727447,1
703568,вул. Лиманна,46.538487,30.740533,
703525,"завод ""Біостимулятор""",46.506312,30.70053,20
702505,вул. Героїв Крут,46.431675,30.71608,
703528,пров. Хаджибейський,46.518369,30.692248,20
702506,вул. Євгена Танцюри,46.42899115171706,30.712183713912967,
702507,10-й квартал,46.42665062107007,30.708745121955875,
702510,5-а станція Великого Фонтану,46.43886981975254,30.745443105697635,
703532,вул. Каменярів,46.53413,30.677713,
702512,вул. Незалежності,46.449168,30.743414,
702513,2-а станція Великого Фонтану,46.45366968122839,30.744144916534427,
703526,вул. Республіканська,46.508664,30.697827,20
702518,вул. Торгова,46.493553,30.732015,
703531,Гастроном,46.53104,30.678951,20
702519,пров. Газовий,46.496329,30.726429,
703540,вул. Енгельса,46.528019,30.681232,
702520,Пересипський міст,46.49691145334999,30.72384059429169,
703541,Сільгосппідприємство,46.524055,30.685408,20-
703544,"завод ""Біостимулятор""",46.506317,30.7002,20-
703548,Хлібозавод №1,46.497355,30.716103,20-
703546,"завод ""Стальметиз""",46.501281,30.706469,20-
703564,М'ясокомбінат,46.525193,30.728803,1
703574,вул. Кишинівська,46.565164,30.775873,1
702529,«КДЦ №6»,46.44764894403397,30.742970108985904,
702531,пл. Тираспольська,46.480246845083116,30.73105573654175,15
702534,вул. Старопортофранківська,46.48125898153143,30.722220540046695,15
703558,Пересипський міст,46.49777556904292,30.722665786743168,1-
702537,вул. Скісна,46.481135,30.711803,15
702539,пров. Стаханівський,46.485631,30.704657,12
703579,вул. Давида Ойстраха,46.584669,30.788361,
702543,Міська клінічна лікарня № 11,46.487891,30.694688,
702546,Слобідський ринок,46.49284918703226,30.704061985015873,12
703542,пров. Хаджибейський,46.518402,30.692057,20-
703565,пл. Ярмаркова,46.52887,30.732071,1
703585,"АТП ""ПІВНІЧ ТРАНС""",46.61076690082845,30.821261975616178,
703586,"Підстанція ""Центроліт""",46.616013,30.824209,1
703527,Нафтозавод,46.512595,30.69468,20
703535,5-а станція Хаджибейської дороги,46.537773,30.677073,20-
703543,Нафтозавод,46.512421,30.694479,20-
703549,вул. Республіканська,46.508589,30.697703,20-
703524,Лакофарбовий завод,46.503172,30.700666,20
703529,Сільгосппідприємство,46.524224,30.685526,20
703545,Лакофарбовий завод,46.503211,30.700211,20-
703547,Слобідський узвіз,46.497276,30.709816,20-
703560,пров. Кравцова,46.507706,30.724335,1
703570,пров. Академіка Векслера,46.547568255546636,30.75154781341553,
703571,станція Одеса-Сортувальна,46.55085171320204,30.755458474159244,1
703581,вул. Віталія Блажка,46.59182,30.797365,
703587,Поліклініка,46.61777615660678,30.819622278213505,1
703580,Північний ринок,46.588658,30.793428,1
702552,вул. Рачкова,46.48801838813811,30.69887459278107,12-
702553,вул. Маловського,46.484915,30.706171,12-
702556,вул. Майстрова,46.481041,30.716303,15-
702557,вул. Старопортофранківська,46.481144,30.721314,15-
702558,вул. Всеволода Змієнка,46.483681,30.725554,15-
702559,вул. Кіри Муратової,46.482507503474146,30.72807312011719,15-
703536,вул. Каменярів,46.534256,30.677616,
703582,вул. 28 бригади,46.59483,30.80118,
703522,Слобідський узвіз,46.497265,30.710415,20
703533,5-а станція Хаджибейської дороги,46.537754,30.67732,20
703520,Херсонський сквер,46.49634275433314,30.71810066699982,12
703573,Миколаївська дорога,46.55782747904811,30.771889686584476,1 (до 28 Бригади)
703575,вул. 10-а лінія,46.570685,30.778944,1
707387,Поліклініка,46.61768,30.819773,1-
703566,вул. 7-а Пересипська,46.53163882288476,30.732643604278568,1
707393,вул. Віталія Блажка,46.592415,30.79788,
707405,М'ясопереробний завод,46.541935,30.744522,1-
707397,Торговельний центр,46.577714,30.782509,7
703576,вул. Марсельська,46.57388935697318,30.780585408210758,1
703578,вул. Академіка Заболотного,46.58128249191699,30.784667730331424,1
703588,"завод ""Центроліт""",46.61886310718048,30.815674066543583,1-
703530,вул. Енгельса,46.528194,30.681202,
703569,М'ясопереробний завод,46.542758,30.745674,1
703584,Автопідприємство (на вимогу),46.607087,30.817922,1
707403,станція Одеса-Сортувальна,46.55121693947421,30.75605928897858,1-
707407,Агаровий завод,46.534552,30.735591,1-
707391,Міський холодильник,46.604698,30.814753,1-
707412,"завод ""Сільхозмаш""",46.517834,30.725961,1-
707414,пров. Кравцова,46.50809219729214,30.724237561225895,1-
707400,вул. Кишинівська,46.565578,30.775904,1-
707388,"Підстанція ""Центроліт""",46.61603699030438,30.823865532875065,1-
707392,вул. 28 бригади,46.59527322219621,30.801571011543277,
707394,вул. Владислава Бувалкіна,46.58916862034075,30.793942809104923,
707389,"АТП ""ПІВНІЧ ТРАНС""",46.610890063793356,30.82123593651085,
707398,вул. Марсельська,46.574505182755516,30.780864357948307,1-
707401,Миколаївська дорога,46.55789387547243,30.77181994915009,1-
707404,пров. Академіка Векслера,46.54799,30.751965,
707399,вул. 10-а лінія,46.571144,30.778967,1-
707409,пл. Ярмаркова,46.528693746063986,30.73182284832001,1-
707406,вул. Лиманна,46.538927,30.740905,
707408,вул. 7-а Пересипська,46.53146167992067,30.732670426368717,7
707413,сквер Жака-Луї Десме,46.511248827260346,30.72389423847199,
707396,вул. Академіка Заболотного,46.58155902354133,30.78474283218384,
707415,вул. Миколи Плигуна,46.5049981528327,30.72460234165192,1-
707395,вул. Давида Ойстраха,46.58516855364387,30.78880369663239,
707402,Лузанівка,46.55359638380769,30.76280772686005,1-
707411,"завод ""Червоної Гвардії""",46.52170685368437,30.727456212043766,1-
707416,вул. Церковна,46.50070755156701,30.724291205406193,1-
707390,Автопідприємство (на вимогу),46.607547,30.818267,1-
707410,М'ясокомбінат,46.52543109357912,30.72883486747742,1-
801869,вул. Скісна,46.476331103406174,30.71191012859345,5-
801885,Парк ім. Тараса Шевченка,46.473438445343724,30.75484156608582,28-
801867,"ТЦ ""Епіцентр""",46.60060312741813,30.80920457839966,1-
801878,Рибний порт,46.33476188782844,30.66646277904511,27
801884,вул. Кіри Муратової,46.47825206849665,30.722478032112125,
892660,Автовокзал,46.47643823593713,30.709458589553837,Автовокзал (висадка)
801876,Пивзавод,46.34111358459347,30.67216515541077,27
801868,вул. Скісна,46.476235053371525,30.71133613586426,5
801872,Підстанція,46.346820223325615,30.679235458374027,27
801877,Пивзавод,46.34073583667539,30.67192912101746,27-
802153,11-а станція Великого Фонтану,46.41104314885295,30.755329803575314,17
802165,11-а станція Великого Фонтану,46.41086157618459,30.755116956872957,18-
803610,вул. Туристська,46.44580006269403,30.69635059448355,
892661,Епіцентр,46.6005994416344,30.809333324432377,Епіцентр (до Центроліту)
803616,Католицьке кладовище,46.44652168039975,30.727299405738613,
803615,вул. Велика Арнаутська,46.4733005662782,30.72606101611335,788
803587,вул. Європейська,46.47664141774406,30.739236474037174,
802154,10-а станція Великого Фонтану,46.413700777401516,30.755433378733766,17
803588,вул. Європейська,46.47685219307398,30.739030782683418,
798744,вул. Пастера,46.49406051274018,30.721163749694828,28
803614,вул. Туристська,46.44629569168737,30.69591964298694,
798745,вул. Пироговська,46.46407227159283,30.754149556159977,5
798746,вул. Пироговська,46.46376558066739,30.75458943843842,5-
798747,вул. Преображенська,46.47023528442392,30.730256438255314,28
798903,Інститут ім. Філатова,46.45423882637042,30.760425925254825,5
798748,вул. Преображенська,46.47024267370873,30.73112010955811,28-
798749,Преображенський парк,46.46882021789344,30.729151368141178,11-
798616,1-а станція Люстдорфської дороги,46.43737630371281,30.72631359100342,26-
798618,1-а станція Великого Фонтану,46.46106071359854,30.745384097099308,17
798775,вул. Гранітна,46.45416121601946,30.726973414421085,
798777,вул. Транспортна,46.45356250388029,30.728679299354557,26-
798779,вул. Євгена Чикаленка,46.38105864857449,30.741629004478458,18
798750,Преображенський парк,46.468714,30.729633,15
798780,вул. Євгена Танцюри,46.43580141325097,30.699287652969364,10-
798781,вул. Євгена Танцюри,46.43598626190694,30.699588060379032,10
798619,1-а станція Великого Фонтану,46.46137481025017,30.74536800384522,17-
798782,вул. Європейська,46.469758673434995,30.736248493194584,
798620,2-а ст. Люстдорфської дороги,46.43211540014503,30.727949738502502,26-
798752,вул. Старопортофранківська,46.47319091829153,30.725803971290592,21-
798753,вул. Федора Пішеніна,46.451681322292444,30.711008906364444,
798621,2-а станція Великого Фонтану,46.455550794135775,30.745266079902652,17
798783,вул. Європейська,46.469788230827014,30.73709607124329,28-
798784,вул. Єфімова,46.45119346105404,30.71459770202637,10-
798754,вул. Саксаганського,46.37953394235843,30.740169882774357,18
798785,вул. Єфімова,46.45123042039177,30.713921785354618,10
798786,вул. Іцкаха Рабіна,46.433649728768295,30.6973671913147,10
798622,2-а станція Великого Фонтану,46.45423143491319,30.74353873729706,17-
798755,вул. Саксаганського,46.379367406333294,30.739901661872864,18-
798623,2-е кладовище,46.450625,30.728149,26-
798787,вул. Іцкаха Рабіна,46.43347596359928,30.697061419487003,10-
798756,вул. Середньофонтанська,46.451888292406686,30.738678574562076,17
798625,3-я ст. Люстдорфської дороги,46.42587411950762,30.72431802749634,26-
798757,вул. Середньофонтанська,46.452642248314376,30.739386677742008,17-
798627,3-а станція Великого Фонтану,46.449966396803106,30.73936522006989,17-
798628,3-а станція Великого Фонтану,46.449681802651035,30.739638805389408,17
798788,вул. Леся Курбаса,46.430984036191035,30.74932157993317,17-
798758,вул. Тираспольська,46.47571785796302,30.723942518234256,21
798789,вул. Леся Курбаса,46.43062539630988,30.749632716178898,17
798629,4-а станція Великого Фонтану,46.44372716060841,30.742658972740177,17-
798630,4-а станція Великого Фонтану,46.443320550509064,30.742932558059696,17
798759,вул. Степова,46.464305059937026,30.712929368019108,21-
798632,5-а станція Люстдорфської дороги,46.4142252687468,30.72739183902741,26-
798792,вул. Михайла Болтенка,46.465871736550504,30.726951956748966,
798760,вул. Степова,46.46485192387723,30.713970065116886,21
798793,"Дитяча база відпочинку ""Мрія""",46.37600697089882,30.735459923744205,18
798634,5-а станція Великого Фонтану,46.43829681720108,30.745507478713993,17-
798761,вул. Майстрова,46.47596906777535,30.71815431118012,
798762,вул. Майстрова,46.47589887691513,30.71734964847565,
798794,Дитяча лікарня,46.383282718907736,30.716770291328434,26-
798763,вул. Старопортофранківська,46.475568,30.72308,5
798635,5-а станція Великого Фонтану,46.43742066616531,30.74606001377106,17
798636,6-а станція Великого Фонтану,46.43357208908041,30.7480663061142,17
798637,6-а станція Великого Фонтану,46.433597968988664,30.747926831245426,17-
798640,6-а ст. Люстдорфської дороги,46.405414,30.73055,26-
798643,7-а станція Великого Фонтану,46.42738274098374,30.75128495693207,17-
798796,"ТЦ ""Вузівський""",46.41071903217025,30.72857201099396,26
798797,"ТЦ ""Вузівський""",46.41028628481406,30.728781223297123,26-
798798,"ж/м ""Альтаїр""",46.421340608648165,30.725251436233524,26-
798800,ж/м Шкільний,46.412004,30.708701,13
798764,вул. Старопортофранківська,46.47574002358133,30.722810626029972,5-
798803,Центр надання адміністративних послуг Одеської міської ради,46.453196620999435,30.72136223316193,
798804,Центр надання адміністративних послуг Одеської міської ради,46.45303030978646,30.721249580383304,
798805,Залізничний вокзал,46.469463098632005,30.74284136295319,28-
798644,7-а станція Великого Фонтану,46.426920545212866,30.751622915267948,17
798646,7-а станція Люстдорфської дороги,46.399129834598774,30.733174681663517,26-
798765,вул. Тираспольська,46.47589148839826,30.72339534759522,28-
798806,Залізничний вокзал,46.46932270003833,30.74162364006043,28
798766,вул. Тираспольська,46.47591734820293,30.723159313201908,28
798808,станція Застава ІІ,46.46564634481444,30.688564181327823,21
798649,8-а станція Люстдорфської дороги,46.393606251541776,30.734902024269108,26-
798651,8-а станція Великого Фонтану,46.42316737044426,30.75329124927521,
798767,вул. Торгова,46.48409951208285,30.720562934875492,28-
798810,вул. Академіка Гаркавого,46.361091,30.701989,
798656,9-а станція Люстдорфської дороги,46.38661310405771,30.731436610221866,26
798768,вул. Торгова,46.48450212404865,30.72038054466248,28
798657,9-а станція Великого Фонтану,46.42018313478041,30.753725767135624,17-
798811,вул. Академіка Гаркавого,46.361298,30.701977,
798773,вул. Успенська,46.47596537352183,30.731511712074283,15
798817,Матроський узвіз,46.48821044643675,30.71133613586426,12-
798818,Матроський узвіз,46.48867581565575,30.71165263652802,12
798658,9-а станція Великого Фонтану,46.42098560330124,30.754181742668155,17
798663,11-а станція Люстдорфської дороги,46.382342773448215,30.7149088382721,26-
798659,10-а станція Люстдорфської дороги,46.38560290869656,30.72735965251923,26
798668,12-а станція Великого Фонтану,46.405429662345405,30.755013227462772,18
798660,10-а станція Люстдорфської дороги,46.38552150019781,30.727155804634098,26-
798820,Меморіал 411-ї батареї,46.371373,30.728602,18
798821,Міжрейсова база моряків,46.441268971451635,30.761895775794986,5-
798822,Міжрейсова база моряків,46.44145749815598,30.762078166008,5
798662,10-а станція Великого Фонтану,46.414436079584654,30.753736495971683,17-
798669,12-а станція Великого Фонтану,46.40502646556556,30.754122734069824,18-
798670,14-а станція Великого Фонтану,46.397816,30.749859,18-
798673,15-а станція Великого Фонтану,46.3951490634302,30.74803411960602,18-
798823,пров. Чорноморський,46.39592970222775,30.73462843894959,26-
798825,Католицьке кладовище,46.446373,30.727333,-
798826,пров. Чорноморський,46.39621457711201,30.734526515007023,26
798829,4-а станція Люстдорфської дороги,46.41765731575718,30.726056098937992,26
798830,"Санаторій ""Аркадія""",46.45005140515751,30.76253414154053,5-
798831,"Санаторій ""Аркадія""",46.45150391871136,30.761681199073795,5
798674,16-а станція Великого Фонтану,46.39321406698671,30.74661254882813,18
798676,16-а станція Великого Фонтану,46.392049,30.747078,18-
798834,пл. Олексіївська,46.459811,30.717792,15
798678,вул. Михайла Болтенка,46.461637171946734,30.720305442810062,
798835,пл. Олексіївська,46.459877,30.717644,11-
798679,вул. Михайла Болтенка,46.461502,30.720407,15
798680,"Дім відпочинку ""Чорне море""",46.398846,30.74836,18
798681,Дім творчості письменників,46.37241314867202,30.730304718017578,18
798836,Ольгіївський узвіз,46.492767938610726,30.714012980461124,12
798683,"Завод ""Стальканат""",46.46083530194352,30.731157660484318,26-
798684,КДЦ №6,46.44680620949006,30.741151571273807,17
798837,Ольгіївський узвіз,46.49206993580692,30.713551640510563,12-
798685,КДЦ №6,46.44703537543737,30.740904808044437,17-
798839,пл. Бориса Дерев'янка,46.44254798295952,30.70562839508057,10-
798687,вул. Тираспольська,46.47572524650347,30.72410345077515,21-
798688,узвіз Маловського,46.48479761717343,30.708670020103455,12-
798689,вул. Балківська,46.46484083885192,30.707001686096195,21
798841,пл. Бориса Дерев'янка,46.44119134261906,30.70459842681885,10
798690,вул. Балківська,46.46487039891441,30.7060843706131,21-
798844,пл. 10 Квітня,46.43945390647418,30.757373571395878,5
798691,узвіз Маловського,46.484620321491164,30.708487629890445,12
798845,пл. 10 Квітня,46.43956111158478,30.757496953010563,5-
798692,вул. Якова Бреуса,46.45104562345235,30.710322260856632,10-
798846,пл. Трибуни Героїв,46.42904661330962,30.728496909141544,26-
798693,вул. Бреуса,46.442673664551045,30.726694464683536,26-
798695,вул. Бугаївська,46.46586434667231,30.695226788520817,21
798848,пр. Лесі Українки,46.45915392327189,30.75707316398621,
798696,вул. Бугаївська,46.46579044783526,30.69416463375092,21-
798698,вул. Велика Арнаутська,46.47292491781627,30.726431608200077,28
798849,пр. Лесі Українки,46.459379341887875,30.756515264511112,
798699,вул. Велика Арнаутська,46.47190893181283,30.75353264808655,28-
798700,вул. Велика Арнаутська,46.47295816794677,30.73107182979584,15
798703,вул. Героїв Крут,46.438943755126715,30.702329277992252,10-
798850,пр. Небесної Сотні,46.41233533167739,30.713444352149967,13
798704,вул. Героїв Крут,46.43841141819341,30.70191085338593,10
798851,пр. Небесної Сотні,46.41246108294879,30.713755488395694,13-
798705,університет Ушинського,46.48091544827838,30.72162508964539,
798852,пров. Високий,46.46399098019053,30.724012255668644,11-
798853,пров. Високий,46.46363255756014,30.72384595870972,15
798706,університет Ушинського,46.48143628816822,30.72138369083405,
798854,пров. Дачний,46.39944058890091,30.74678957462311,18-
798858,пров. Прохорівський,46.468764796784626,30.718948245048527,21
798859,пров. Прохорівський,46.46821058259272,30.71834206581116,21-
798860,Південно-західний масив,46.434046,30.727291,26-
798861,Південно-західний масив,46.43432,30.727183,26
804196,5-а станція Люстдорфської дороги,46.413760723005645,30.727133367287667,769
798707,Вул. Грецька,46.482742,30.732418,
798863,"ринок ""Привоз""",46.468003674514485,30.734784007072452,11-
798709,вул. Дачна,46.4040831954031,30.74704170227051,18-
798711,вул. Довга,46.38643918897238,30.746161937713627,18
798712,вул. Довженка,46.45726184826281,30.75884342193604,5
798713,вул. Довженка,46.456659474648255,30.759487152099613,5-
798715,вул. Дегтярна,46.4769775896132,30.72632968425751,21-
798716,вул. Дегтярна,46.47745783153788,30.726957321166996,21
798717,вул. Канатна,46.46919338522375,30.746929049491886,28-
798865,"Санаторій ""Зелена гірка""",46.377590990459815,30.73755204677582,18
798718,вул. Канатна,46.469097322591146,30.746440887451175,28
798719,вул. Олексія Маркевича,46.493052307555075,30.719484686851505,
798866,"Санаторій ""Одеса""",46.443305,30.765109,5-
798867,"Санаторій ""Одеса""",46.44314681617764,30.764974951744083,5
798720,вул. Колонічна,46.46555027592197,30.69911599159241,21
798868,"Санаторій ""Перлина""",46.37373078757585,30.732407569885257,18
798721,вул. Колонічна,46.4653248828549,30.699470043182377,21-
798871,"Санаторій ""Якір""",46.38285345448506,30.74381232261658,18
798872,"Санаторій ""ім. Чкалова""",46.44627764564504,30.764175653457645,5-
798722,вул. Академіка Корольова,46.412816,30.718719,13-
798873,"Санаторій ""ім. Чкалова""",46.44650311756284,30.763757228851322,5
798723,вул. Академіка Корольова,46.412791,30.718992,13
798874,пров. Аліберне,46.34975292984501,30.696551799774173,
798726,Вул. Левітана (на вимогу),46.40728284958435,30.72985410690308,26-
798727,Вул. Левітана (на вимогу),46.40774891071867,30.72963953018189,26
798728,вул. Львівська,46.40208932754426,30.74708461761475,18-
798729,вул. Львівська,46.402740394449296,30.746912956237797,18
798730,вул. М'ясоїдівська,46.470678639736505,30.72210252285004,21-
798731,вул. М'ясоїдівська,46.471114602272216,30.722719430923465,21
798875,пров. Аліберне,46.349789957961825,30.69665372371674,
798732,вул. Олексія Вадатурського,46.44695775482126,30.70663154125214,
798876,селище Комунарів,46.3496270340602,30.69183111190796,27-
798734,вул. Олексія Вадатурського,46.44637374854379,30.706213116645817,
798735,вул. Мальовнича,46.45074625107989,30.719988942146305,10-
798877,селище Комунарів,46.34960851994972,30.69215834140778,27
798878,Аркадія,46.43124654429891,30.760747790336612,
798736,вул. Мальовнича,46.45072037931612,30.719302296638492,10
798880,Куликове поле,46.46684719166548,30.745904445648197,17-
798883,станція Одеса-Товарна,46.460103,30.713778,11
798737,вул. Михайла Болтенка,46.46576088827235,30.727198719978336,15
798738,вул. Ольгіївська,46.488742296647736,30.719044804573063,28-
798887,ЦПКіВ ім. Тараса Шевченка,46.47452459551758,30.754868388175968,28-
798889,вул. Старопортофранківська,46.473002501422506,30.725664496421818,21
798890,Театр Музичної комедії,46.467966726560604,30.75254023075104,5
798891,Театр Музичної комедії,46.467438368076564,30.752813816070557,5-
798892,Театр Музичної комедії,46.46923033234496,30.75284600257874,28-
798893,Театр Музичної комедії,46.468720459856925,30.75228810310364,28
798894,пл. Тираспольська,46.47960409172432,30.730680227279667,21
798897,пл. Тираспольська,46.47923468980639,30.731994509696964,15
798739,вул. Ольгіївська,46.489333235227456,30.718776583671573,28
798898,Турбаза,46.43630420012844,30.759192109107975,5-
798740,вул. Офіцерська,46.391478801501975,30.734038352966312,26-
798899,Автовокзал,46.476368,30.709207,
798902,Інститут ім. Філатова,46.453856,30.76087,5-
798741,вул. Пантелеймонівська,46.47004,30.73066,15
798904,вул. Гранітна,46.45424252209865,30.726791024208072,
807693,Тролейбусне депо,46.41815657184045,30.71187794208527,"Тролейбусне депо КП ""ОМЕТ"""
807690,Трамвайне депо №1,46.466711335938996,30.73485139727031,Трамвайне депо №1 КП «Одесміськелектротранс»
818653,"КСП ""Нива""",46.361067790299586,30.702114688025578,-
807680,Трамвайне депо №2,46.484390156432816,30.696081026106533,Трамвайне депо №2 КП«ОМЕТ»
890488,вул. Ольгіївська,46.49337729881365,30.72781562805176,7
864215,6-а ст. Люстдорфської дороги,46.4056077,30.7262197,3
890489,вул. Ольгіївська,46.493281278871216,30.727783441543583,7-
890491,вул. Торгова,46.49037844211985,30.73136687278748,7
890497,вул. Університетська,46.48676629914724,30.733003020286564,7
890490,вул. Торгова,46.490821633324664,30.730685591697696,7-
890496,вул. Єлісаветинська,46.4874200483221,30.733003020286564,7-
890625,вул. Приморська,46.49690037485449,30.723550915718082,7
873072,вул. Церковна,46.500637392622515,30.724554061889652,1+
